{"file":"testdata/204/fedex.edi","shipment":{"carrier_scac":"FXFE","shipment_id":"","action_code":"00","references":{"bill_of_lading":"11111111","customer_po":"22222222"},"bill_to":{"code":"BT","name":"BILL-TO NAME","address1":"ADDRESS INFORMATION","city":"CITY","state":"ST","postal_code":"12345","country":"USA"},"stops":[{"sequence":1,"type":"pickup","location":{"code":"SF","name":"SHIPPER NAME","address1":"SHIPPER ADDR. INFO","city":"CITY","state":"ST","postal_code":"12345","country":"USA"}},{"sequence":2,"type":"delivery","location":{"code":"CN","name":"CONSIGNEE NAME","address1":"CONSIGNEE ADDR. INFO","city":"CITY","state":"ST","postal_code":"72601","country":"USA"}},{"sequence":3,"type":"delivery","location":{}},{"sequence":4,"type":"delivery","location":{}},{"sequence":5,"type":"delivery","location":{}}],"equipment":{},"notes":["SPECIAL INSTRUCTIONS FOR PICKUP"]},"issues":[]}
{"file":"testdata/204/fedex2.edi","shipment":{"carrier_scac":"FXFE","shipment_id":"","action_code":"00","references":{"bill_of_lading":"11111111","customer_po":"22222222"},"bill_to":{"code":"BT","name":"BILL-TO NAME","address1":"ADDRESS INFORMATION","city":"CITY","state":"ST","postal_code":"12345","country":"USA"},"stops":[{"sequence":1,"type":"pickup","location":{"code":"SF","name":"SHIPPER NAME","address1":"SHIPPER ADDR. INFO","city":"CITY","state":"ST","postal_code":"12345","country":"USA"}},{"sequence":2,"type":"delivery","location":{"code":"CN","name":"CONSIGNEE NAME","address1":"CONSIGNEE ADDR. INFO","city":"CITY","state":"ST","postal_code":"72601","country":"USA"}},{"sequence":3,"type":"delivery","location":{}}],"equipment":{},"notes":["SPECIAL INSTRUCTIONS FOR PICKUP"]},"issues":[]}
{"file":"testdata/204/invalid_b2_missing_fields.edi","shipment":{"carrier_scac":"","shipment_id":"","action_code":"","references":{},"stops":[{"sequence":1,"type":"pickup","location":{}},{"sequence":2,"type":"delivery","location":{}}],"equipment":{},"notes":[]},"issues":[{"severity":"ERROR","code":"B2.SCAC.MISSING","message":"B2-02 SCAC is required","segment_index":3,"tag":"B2"}]}
{"file":"testdata/204/invalid_dtm_format.edi","shipment":{"carrier_scac":"SCAC","shipment_id":"ABC123","action_code":"","references":{},"stops":[{"sequence":1,"type":"pickup","location":{},"appointments":[{"qualifier":"133","date":"2024010","time":"080"}]}],"equipment":{},"notes":[]},"issues":[{"severity":"ERROR","code":"SE.COUNT","message":"SE01=6 does not match actual count 5","segment_index":6,"tag":"SE"},{"severity":"ERROR","code":"DTM.DATE.INVALID","message":"DTM-02 must be CCYYMMDD","segment_index":5,"tag":"DTM"},{"severity":"ERROR","code":"DTM.TIME.INVALID","message":"DTM-03 must be HHMM or HHMMSS","segment_index":5,"tag":"DTM"}]}
{"file":"testdata/204/invalid_missing_b2.edi","shipment":{"carrier_scac":"","shipment_id":"","action_code":"","references":{"customer_po":"PO12345"},"stops":[],"equipment":{},"notes":[]},"issues":[{"severity":"ERROR","code":"B2.MISSING","message":"B2 segment missing in 204 header","segment_index":2,"tag":""}]}
{"file":"testdata/204/invalid_s5_type.edi","shipment":{"carrier_scac":"SCAC","shipment_id":"ABC123","action_code":"","references":{},"stops":[{"sequence":1,"type":"other","location":{}}],"equipment":{},"notes":[]},"issues":[{"severity":"ERROR","code":"SE.COUNT","message":"SE01=5 does not match actual count 4","segment_index":5,"tag":"SE"}]}
{"file":"testdata/204/invalid_se_count.edi","shipment":{"carrier_scac":"SCAC","shipment_id":"ABC123","action_code":"","references":{},"stops":[],"equipment":{},"notes":[]},"issues":[{"severity":"ERROR","code":"SE.COUNT","message":"SE01=1 does not match actual count 3","segment_index":4,"tag":"SE"}]}
{"file":"testdata/204/meritor-sample.edi","shipment":{"carrier_scac":"ABCD","shipment_id":"","action_code":"00","references":{"customer_po":"A21060300200"},"stops":[{"sequence":1,"type":"pickup","location":{"code":"SH","name":"MERITOR","id_code_qual":"92","id_code":"1000050828","address1":"Address 1","address2":"Address 2","city":"TROY","state":"MI","postal_code":"48084","country":"US"}},{"sequence":2,"type":"delivery","location":{"code":"ST","name":"ABC Corp","id_code_qual":"92","id_code":"9898989","address1":"ABC Corp Address Information","city":"TAMPA","state":"FL","postal_code":"33637","country":"USA"}}],"equipment":{"id":"53_FT_DRY"},"notes":["PICKUP # 271665"]},"issues":[]}
{"file":"testdata/204/multi-stop-sample.edi","shipment":{"carrier_scac":"BWEM","shipment_id":"","action_code":"00","references":{"bill_of_lading":"602296BOL","shipment_ref":"602296"},"bill_to":{"code":"BT","name":"Grupo Logico LLC","id_code_qual":"93","id_code":"2649","address1":"19661 Brownstown Center Dr","address2":"Suite 600","city":"Brownstown","state":"MI","postal_code":"48183-1679","country":"USA"},"stops":[{"sequence":1,"type":"pickup","location":{"code":"CB","name":"Globetrekker Express, Inc.","id_code_qual":"2","id_code":"GEAQ"}},{"sequence":3,"type":"delivery","location":{"code":"CB","name":"Globetrekker Express, Inc.","id_code_qual":"2","id_code":"GEAQ"}},{"sequence":4,"type":"delivery","location":{"code":"CB","name":"Globetrekker Express, Inc.","id_code_qual":"2","id_code":"GEAQ"}},{"sequence":5,"type":"pickup","location":{"code":"CB","name":"Globetrekker Express, Inc.","id_code_qual":"2","id_code":"GEAQ"}},{"sequence":6,"type":"pickup","location":{"code":"CB","name":"Globetrekker Express, Inc.","id_code_qual":"2","id_code":"GEAQ"}},{"sequence":7,"type":"delivery","location":{"code":"CB","name":"Globetrekker Express, Inc.","id_code_qual":"2","id_code":"GEAQ"}},{"sequence":8,"type":"delivery","location":{"code":"CB","name":"Globetrekker Express, Inc.","id_code_qual":"2","id_code":"GEAQ"}}],"equipment":{"id":"317692TRLR"},"notes":["Instruction for 317692."]},"issues":[]}
{"file":"testdata/204/sample1.edi","shipment":{"carrier_scac":"SCAC","shipment_id":"123456789","action_code":"00","references":{"customer_po":"PO12345"},"bill_to":{"code":"BT","name":"BILL TO NAME","id_code_qual":"92","id_code":"BILL123"},"shipper":{"code":"SH","name":"SHIPPER NAME","id_code_qual":"92","id_code":"SHIP123","address1":"123 SHIPPER ST","city":"DALLAS","state":"TX","postal_code":"75201","country":"US"},"consignee":{"code":"ST","name":"CONSIGNEE NAME","id_code_qual":"92","id_code":"CONS123","address1":"456 CONSIGNEE AVE","city":"AUSTIN","state":"TX","postal_code":"73301","country":"US"},"stops":[{"sequence":1,"type":"pickup","location":{},"appointments":[{"qualifier":"133","date":"20240102","time":"0800"}]},{"sequence":2,"type":"delivery","location":{},"appointments":[{"qualifier":"132","date":"20240103","time":"1600"}]}],"equipment":{"type":"VEH","id":"TRAIL123"},"notes":[]},"issues":[]}
{"file":"testdata/204/sample2.edi","shipment":{"carrier_scac":"XXXX","shipment_id":"","action_code":"04","references":{"customer_po":"9999595358","shipment_ref":"9999670098"},"stops":[{"sequence":1,"type":"pickup","location":{"code":"SH","name":"XYZ CORP","id_code_qual":"9","id_code":"9991555550000","address1":"5555 TERMINAL RD","city":"CLEVELAND","state":"OH","postal_code":"44023"}},{"sequence":2,"type":"other","location":{"code":"ST","name":"1 EDI SOURCE","id_code_qual":"93","id_code":"9990055555","address1":"31875 SOLON RD","city":"SOLON","state":"OH","postal_code":"44139"}},{"sequence":3,"type":"delivery","location":{"code":"ST","name":"1 EDI SOURCE","id_code_qual":"93","id_code":"9990055555","address1":"55555 5TH AVE","city":"MAYFIELD","state":"OH","postal_code":"44244"}}],"equipment":{"id":"NONE"},"notes":["FROZEN GOODS SET TO -10d F"]},"issues":[{"severity":"ERROR","code":"SE.COUNT","message":"SE01=46 does not match actual count 44","segment_index":45,"tag":"SE"},{"severity":"ERROR","code":"IEA.CTRL.MISMATCH","message":"IEA02 does not match ISA13","segment_index":47,"tag":"IEA"}]}
{"file":"testdata/204/sample3.edi","shipment":{"carrier_scac":"BWEM","shipment_id":"","action_code":"00","references":{"shipment_ref":"602465"},"bill_to":{"code":"BT","name":"Grupo Logico LLC","id_code_qual":"93","id_code":"2649","address1":"19661 Brownstown Center Dr","address2":"Suite 600","city":"Brownstown","state":"MI","postal_code":"48183-1679","country":"USA"},"stops":[{"sequence":0,"type":"pickup","location":{"code":"SF","name":"AVON AUTOMOTIVE","id_code_qual":"93","id_code":"5715","address1":"603 7th St","city":"Cadillac","state":"MI","postal_code":"49601-1344","country":"USA"}},{"sequence":1,"type":"delivery","location":{"code":"ST","name":"ABC Undercar Products Group","id_code_qual":"93","id_code":"9889","address1":"4247 Eastern Ave SE","city":"Wyoming","state":"MI","postal_code":"49508-3400","country":"USA"}}],"equipment":{"id":"Unknown"},"notes":[]},"issues":[{"severity":"ERROR","code":"SE.COUNT","message":"SE01=53 does not match actual count 51","segment_index":52,"tag":"SE"}]}
